[{"info":{"name":"Aula Studio 1","address":"Corso Duca Degl'Abruzzi 24 - 10129 Torino","coordinates":{"latitude":"45.0624921","longitude":"7.662202999999977"},"open_time":{"start":"8:00","end":"19:30"}},"capacity":150,"takenSeats":0,"informations":{"name":"Aula Studio 1","address":"Corso Duca Degl0027Abruzzi 24 - 10129 Torino","coordinates":{"latitude":"45.0624921","longitude":"7.662202999999977"},"open_time":{"start":"8:00","end":"19:30"}}},{"info":{"name":"Aula Studio 2","address":"Corso Duca Degl'Abruzzi 24 - 10129 Torino","coordinates":{"latitude":"45.0624921","longitude":"7.662202999999977"},"open_time":{"start":"8:00","end":"19:30"}},"capacity":170,"takenSeats":0,"informations":{"name":"Aula Studio 2","address":"Corso Duca Degl'Abruzzi 24 - 10129 Torino","coordinates":{"latitude":"45.0624921","longitude":"7.662202999999977"},"open_time":{"start":"8:00","end":"19:30"}}},{"info":{"name":"Aula Studio 3","address":"Corso Duca Degl'Abruzzi 24 - 10129 Torino","coordinates":{"latitude":"45.0624921","longitude":"7.662202999999977"},"open_time":{"start":"8:00","end":"19:30"}},"capacity":200,"takenSeats":0,"informations":{"name":"Aula Studio 3","address":"Corso Duca Degl'Abruzzi 24 - 10129 Torino","coordinates":{"latitude":"45.0624921","longitude":"7.662202999999977"},"open_time":{"start":"8:00","end":"19:30"}}},{"info":{"name":"Aula Studio 4","address":"Corso Duca Degl'Abruzzi 24 - 10129 Torino","coordinates":{"latitude":"45.0624921","longitude":"7.662202999999977"},"open_time":{"start":"8:00","end":"19:30"}},"capacity":70,"takenSeats":0,"informations":{"name":"Aula Studio 4","address":"Corso Duca Degl'Abruzzi 24 - 10129 Torino","coordinates":{"latitude":"45.0624921","longitude":"7.662202999999977"},"open_time":{"start":"8:00","end":"19:30"}}}]